timestamp,q[0],q[1],q[2],q[3],delta_q_reset[0],delta_q_reset[1],delta_q_reset[2],delta_q_reset[3],quat_reset_counter,lat_x,lon_x,alt_x,alt_ellipsoid_x,delta_alt,eph_x,epv_x,terrain_alt,lat_lon_reset_counter,alt_reset_counter,terrain_alt_valid,dead_reckoning,time_utc_usec,lat_y,lon_y,alt_y,alt_ellipsoid_y,s_variance_m_s,c_variance_rad,eph_y,epv_y,hdop,vdop,noise_per_ms,jamming_indicator,vel_m_s,vel_n_m_s,vel_e_m_s,vel_d_m_s,cog_rad,heading_x,heading_offset,fix_type,vel_ned_valid,satellites_used,ref_lat,ref_lon,x,y,z,delta_xy[0],delta_xy[1],delta_z,vx,vy,vz,z_deriv,delta_vxy[0],delta_vxy[1],delta_vz,ax,ay,az,heading_y,delta_heading,ref_alt,dist_bottom,eph,epv,evh,evv,vxy_max,vz_max,hagl_min,hagl_max,xy_valid,z_valid,v_xy_valid,v_z_valid,xy_reset_counter,z_reset_counter,vxy_reset_counter,vz_reset_counter,heading_reset_counter,xy_global,z_global,dist_bottom_valid,label
258725029,-0.3252074,0.010554437,-0.006517632,0.94556135,0.9999948,-4.610795e-10,1.5842416e-09,0.0032373846,3.0,36.204811580582025,138.25291564085737,51.336754,86.740776,-0.0,2.718645,3.9270613,51.236664,2.0,0.0,1.0,0.0,0.0,362048117.0,1382529164.0,49204.0,86300.0,0.321,2.0173786,2.039,3.0080001,0.84,1.3,102.0,47.0,0.020000001,0.011000001,-0.017,0.042000003,0.0,,0.0,3.0,1.0,11.0,36.2048055,138.2529121,0.6761299,0.31770122,0.3620774,-0.015382085,0.016268428,0.0,0.005889217,0.0051052393,0.06879349,-0.00041353144,-0.031618506,-0.00430735,-0.337511,0.036738064,0.019048331,0.022897149,-2.478927,0.0064747804,51.69883,0.100087196,0.5067431,0.3762028,0.14663771,0.08083571,inf,inf,inf,inf,1.0,1.0,1.0,1.0,2.0,0.0,2.0,1.0,3.0,1.0,1.0,1.0,benign
258842609,-0.3252074,0.010554437,-0.006517632,0.94556135,0.9999948,-4.610795e-10,1.5842416e-09,0.0032373846,3.0,36.204811580582025,138.25291564085737,51.336754,86.740776,-0.0,2.718645,3.9270613,51.236664,2.0,0.0,1.0,0.0,0.0,362048117.0,1382529164.0,49200.6,86296.6,0.321,2.01737874,2.0384,3.00740008,0.84,1.3,102.0,47.0,0.0176000008,0.00980000088,-0.0148,0.0440000024,0.0,,0.0,3.0,1.0,11.0,36.2048055,138.2529121,0.6761299,0.31770122,0.3620774,-0.015382085,0.016268428,0.0,0.005889217,0.0051052393,0.06879349,-0.00041353144,-0.031618506,-0.00430735,-0.337511,0.036738064,0.019048331,0.022897149,-2.478927,0.0064747804,51.69883,0.100087196,0.5067431,0.3762028,0.14663771,0.08083571,inf,inf,inf,inf,1.0,1.0,1.0,1.0,2.0,0.0,2.0,1.0,3.0,1.0,1.0,1.0,benign
258847608,-0.3252074,0.010554437,-0.006517632,0.94556135,0.9999948,-4.610795e-10,1.5842416e-09,0.0032373846,3.0,36.20481158143539,138.252915640068,51.3366185,86.740643,0.0,2.7187095,3.927086,51.236318499999996,2.0,0.0,1.0,0.0,0.0,362048117.0,1382529164.0,49197.2,86293.2,0.321,2.01737888,2.0378000000000003,3.0068000599999998,0.84,1.3,102.0,47.0,0.0152000006,0.00860000076,-0.0126,0.0460000018,0.0,,0.0,3.0,1.0,11.0,36.2048055,138.2529121,0.67622478,0.317630395,0.36221137000000003,-0.015382085,0.016268428,0.0,0.0059359593500000005,0.0050859283499999994,0.068870682,-0.0002038815595,-0.031618506,-0.00430735,-0.337511,0.0209719185,0.01643981,0.023494433,-2.47893015,0.0064747804,51.69883,0.1002990905,0.5070889700000001,0.37646023,0.146858335,0.080882985,inf,inf,inf,inf,1.0,1.0,1.0,1.0,2.0,0.0,2.0,1.0,3.0,1.0,1.0,1.0,benign
258852607,-0.32520434,0.010556366,-0.006516953,0.9455624,0.9999948,-4.610795e-10,1.5842416e-09,0.0032373846,3.0,36.20481158228877,138.25291563927863,51.336483,86.74051,-0.0,2.718774,3.9271107,51.235973,2.0,0.0,1.0,0.0,0.0,362048117.0,1382529164.0,49193.8,86289.8,0.321,2.01737902,2.0372,3.00620004,0.84,1.3,102.0,47.0,0.0128000004,0.00740000064,-0.010400000000000001,0.0480000012,0.0,,0.0,3.0,1.0,11.0,36.2048055,138.2529121,0.67631966,0.31755957,0.36234534,-0.015382085,0.016268428,0.0,0.0059827017,0.0050666174,0.068947874,5.768321e-06,-0.031618506,-0.00430735,-0.337511,0.005205773,0.013831289,0.024091717,-2.4789333,0.0064747804,51.69883,0.100510985,0.50743484,0.37671766,0.14707896,0.08093026,inf,inf,inf,inf,1.0,1.0,1.0,1.0,2.0,0.0,2.0,1.0,3.0,1.0,1.0,1.0,benign
258902598,-0.32521376,0.010552205,-0.0065011843,0.9455594,0.9999948,-4.610795e-10,1.5842416e-09,0.0032373846,3.0,36.2048115879132,138.25291563497277,51.335785,86.738014,0.0,2.718747,3.92709048,51.236213400000004,2.0,0.0,1.0,0.0,0.0,362048117.0,1382529164.0,49190.4,86286.4,0.321,2.01737916,2.0366,3.0056000199999997,0.84,1.3,102.0,47.0,0.0104000002,0.00620000052,-0.0082,0.0500000006,0.0,,0.0,3.0,1.0,11.0,36.2048055,138.2529121,0.67690314,0.3171499366666667,0.3629628733333333,-0.015382085,0.016268428,0.0,0.0057204968,0.0027021971333333335,0.06991472933333334,0.001516103214,-0.031618506,-0.00430735,-0.337511,-0.25757288466666667,-0.2514371873333333,0.21739373466666667,-2.4791194333333335,0.0064747804,51.69883,0.10034065666666667,0.5098152133333334,0.37699143333333335,0.14856168666666666,0.08111772,inf,inf,inf,inf,1.0,1.0,1.0,1.0,2.0,0.0,2.0,1.0,3.0,1.0,1.0,1.0,benign
258922223,-0.325076355,0.0106009495,-0.0065111888,0.945606,0.9999948,-4.610795e-10,1.5842416e-09,0.0032373846,3.0,36.20481159353762,138.25291563066693,51.335087,86.735518,0.0,2.71872,3.92707026,51.2364538,2.0,0.0,1.0,0.0,0.0,362048117.0,1382529164.0,49187.0,86283.0,0.321,2.0173793,2.036,3.005,0.84,1.3,102.0,47.0,0.008,0.0050000004,-0.006,0.052,0.0,,0.0,3.0,1.0,11.0,36.2048055,138.2529121,0.67748662,0.3167403033333333,0.3635804066666667,-0.015382085,0.016268428,0.0,0.0054582919,0.00033777686666666695,0.07088158466666666,0.0030264381070000002,-0.031618506,-0.00430735,-0.337511,-0.5203515423333334,-0.5167056636666667,0.41069575233333333,-2.4793055666666666,0.0064747804,51.69883,0.10017032833333334,0.5121955866666668,0.3772652066666667,0.15004441333333335,0.08130518,inf,inf,inf,inf,1.0,1.0,1.0,1.0,2.0,0.0,2.0,1.0,3.0,1.0,1.0,1.0,benign
258952588,-0.32493895,0.010649694,-0.0065211933,0.9456526,0.9999948,-4.610795e-10,1.5842416e-09,0.0032373846,3.0,36.20481159916205,138.25291562636107,51.334389,86.733022,0.0,2.718693,3.92705004,51.2366942,2.0,0.0,1.0,0.0,0.0,362048116.9,1382529164.05,49186.25,86282.25,0.320250001,2.01737936,2.03540001,3.0044,0.84,1.3,102.0,47.1,0.00850000005,0.003950000380000001,-0.0052499999500000005,0.0554500005,0.0,,0.0,3.0,1.0,11.0,36.2048055,138.2529121,0.6780701,0.31633067,0.36419794,-0.015382085,0.016268428,0.0,0.005196087,-0.0020266434,0.07184844,0.004536773,-0.031618506,-0.00430735,-0.337511,-0.7831302,-0.78197414,0.60399777,-2.4794917,0.0064747804,51.69883,0.1,0.51457596,0.37753898,0.15152714,0.08149264,inf,inf,inf,inf,1.0,1.0,1.0,1.0,2.0,0.0,2.0,1.0,3.0,1.0,1.0,1.0,benign
258997580,-0.32523155,0.010716877,-0.006385304,0.9455522,0.9999948,-4.610795e-10,1.5842416e-09,0.0032373846,3.0,36.20481160478647,138.25291562205524,51.333691,86.730526,0.0,2.718666,3.92702982,51.2369346,2.0,0.0,1.0,0.0,0.0,362048116.8,1382529164.1,49185.5,86281.5,0.319500002,2.01737942,2.03480002,3.0038,0.84,1.3,102.0,47.2,0.0090000001,0.00290000036,-0.0044999999,0.058900001,0.0,,0.0,3.0,1.0,11.0,36.2048055,138.2529121,0.6787584,0.31597927,0.36501669999999997,-0.015382085,0.016268428,0.0,0.006558302,0.0016770754999999998,0.07146244,0.00476189375,-0.031618506,-0.00430735,-0.337511,-0.437258675,-0.24681756999999993,0.29570855,-2.47888825,0.0064747804,51.69883,0.1,0.5106429450000001,0.37660044000000004,0.14927672,0.081153292,inf,inf,inf,inf,1.0,1.0,1.0,1.0,2.0,0.0,2.0,1.0,3.0,1.0,1.0,1.0,benign
259042573,-0.325364245,0.0106522285,-0.0063880315,0.9455072,0.9999948,-4.610795e-10,1.5842416e-09,0.0032373846,3.0,36.2048116104109,138.25291561774938,51.332993,86.72803,-0.0,2.718639,3.9270096,51.237175,2.0,0.0,1.0,0.0,0.0,362048116.7,1382529164.15,49184.75,86280.75,0.318750003,2.01737948,2.03420003,3.0032,0.84,1.3,102.0,47.3,0.00950000015,0.00185000034,-0.00374999985,0.0623500015,0.0,,0.0,3.0,1.0,11.0,36.2048055,138.2529121,0.6794467,0.31562787,0.36583546,-0.015382085,0.016268428,0.0,0.007920517,0.0053807944,0.07107644,0.0049870145,-0.031618506,-0.00430735,-0.337511,-0.09138715,0.288339,-0.01258067,-2.4782848,0.0064747804,51.69883,0.1,0.50670993,0.3756619,0.1470263,0.080813944,inf,inf,inf,inf,1.0,1.0,1.0,1.0,2.0,0.0,2.0,1.0,3.0,1.0,1.0,1.0,benign
259047572,-0.32549694,0.01058758,-0.006390759,0.9454622,0.9999948,-4.610795e-10,1.5842416e-09,0.0032373846,3.0,36.20481161624213,138.2529156146955,51.3325398,86.7257712,0.0,2.71863154,3.92700302,51.237545,2.0,0.0,1.0,0.0,0.0,362048116.6,1382529164.2,49184.0,86280.0,0.318000004,2.01737954,2.03360004,3.0025999999999997,0.84,1.3,102.0,47.4,0.010000000200000001,0.00080000032,-0.0029999998,0.065800002,0.0,,0.0,3.0,1.0,11.0,36.2048055,138.2529121,0.6799124666666666,0.31542741999999996,0.36638598666666666,-0.015382085,0.016268428,0.0,0.008557716333333333,0.0050328596,0.07113930666666667,0.0053477432,-0.031618506,-0.00430735,-0.337511,0.01964168000000001,0.2711467,-0.05883493,-2.4785226,0.0064747804,51.69883,0.1,0.50933341,0.3761035833333333,0.14866243666666668,0.08103169933333333,inf,inf,inf,inf,1.0,1.0,1.0,1.0,2.0,0.0,2.0,1.0,3.0,1.0,1.0,1.0,benign
259102562,-0.32528996,0.010757028,-0.00645099,0.9455312,0.9999948,-4.610795e-10,1.5842416e-09,0.0032373846,3.0,36.20481162207336,138.2529156116416,51.332086600000004,86.7235124,0.0,2.71862408,3.92699644,51.237915,2.0,0.0,1.0,0.0,0.0,362048116.5,1382529164.25,49183.25,86279.25,0.317250005,2.0173796,2.03300005,3.002,0.84,1.3,102.0,47.5,0.01050000025,-0.00024999970000000055,-0.00224999975,0.06925000249999999,0.0,,0.0,3.0,1.0,11.0,36.2048055,138.2529121,0.6803782333333334,0.31522697,0.3669365133333333,-0.015382085,0.016268428,0.0,0.009194915666666668,0.0046849247999999994,0.07120217333333334,0.0057084718999999996,-0.031618506,-0.00430735,-0.337511,0.13067051000000002,0.2539544,-0.10508919,-2.4787604,0.0064747804,51.69883,0.1,0.51195689,0.37654526666666666,0.15029857333333332,0.08124945466666667,inf,inf,inf,inf,1.0,1.0,1.0,1.0,2.0,0.0,2.0,1.0,3.0,1.0,1.0,1.0,benign
259152553,-0.32517162,0.01065312,-0.0066040847,0.94557196,0.9999948,-4.610795e-10,1.5842416e-09,0.0032373846,3.0,36.20481162790459,138.2529156085877,51.3316334,86.7212536,0.0,2.7186166199999997,3.92698986,51.238285,2.0,0.0,1.0,0.0,0.0,362048116.4,1382529164.3,49182.5,86278.5,0.316500006,2.01737966,2.03240006,3.0014,0.84,1.3,102.0,47.6,0.0110000003,-0.0012999997200000002,-0.0014999997,0.072700003,0.0,,0.0,3.0,1.0,11.0,36.2048055,138.2529121,0.680844,0.31502652,0.36748704,-0.015382085,0.016268428,0.0,0.009832115,0.00433699,0.07126504,0.0060692006,-0.031618506,-0.00430735,-0.337511,0.24169934,0.2367621,-0.15134345,-2.4789982,0.0064747804,51.69883,0.1,0.51458037,0.37698695,0.15193471,0.08146721,inf,inf,inf,inf,1.0,1.0,1.0,1.0,2.0,0.0,2.0,1.0,3.0,1.0,1.0,1.0,benign
259197545,-0.32530734,0.010754339,-0.006483817,0.945525,0.9999948,-4.610795e-10,1.5842416e-09,0.0032373846,3.0,36.204811633735815,138.25291560553381,51.331180200000006,86.7189948,0.0,2.7186091599999997,3.92698328,51.238655,2.0,0.0,1.0,0.0,0.0,362048116.3,1382529164.35,49181.75,86277.75,0.315750007,2.01737972,2.03180007,3.0008,0.84,1.3,102.0,47.7,0.011500000350000001,-0.00234999974,-0.0007499996499999995,0.0761500035,0.0,,0.0,3.0,1.0,11.0,36.2048055,138.2529121,0.68176635,0.314642175,0.3677953,-0.015382085,0.016268428,0.0,0.008801805150000001,0.0018156084499999997,0.07132888000000001,0.0060072960499999994,-0.031618506,-0.00430735,-0.337511,-0.29189712999999995,0.03829592000000001,-0.22574877499999998,-2.47873475,0.0064747804,51.69883,0.1,0.5105457600000001,0.376153075,0.14933758,0.0810942,inf,inf,inf,inf,1.0,1.0,1.0,1.0,2.0,0.0,2.0,1.0,3.0,1.0,1.0,1.0,benign
259252537,-0.32542056,0.010733371,-0.006450599,0.94548655,0.9999948,-4.610795e-10,1.5842416e-09,0.0032373846,3.0,36.20481163956705,138.25291560247993,51.330727,86.716736,-0.0,2.7186017,3.9269767,51.239025,2.0,0.0,1.0,0.0,0.0,362048116.2,1382529164.4,49181.0,86277.0,0.315000008,2.0173797799999997,2.03120008,3.0002,0.84,1.3,102.0,47.8,0.0120000004,-0.0033999997600000003,4.0000000013640236e-10,0.079600004,0.0,,0.0,3.0,1.0,11.0,36.2048055,138.2529121,0.6826887,0.31425783,0.36810356,-0.015382085,0.016268428,0.0,0.0077714953,-0.0007057731,0.07139272,0.0059453915,-0.031618506,-0.00430735,-0.337511,-0.8254936,-0.16017026,-0.3001541,-2.4784713,0.0064747804,51.69883,0.1,0.50651115,0.3753192,0.14674045,0.08072119,inf,inf,inf,inf,1.0,1.0,1.0,1.0,2.0,0.0,2.0,1.0,3.0,1.0,1.0,1.0,benign
259302527,-0.32532135,0.010841446,-0.00637548,0.9455199,0.9999948,-4.610795e-10,1.5842416e-09,0.0032373846,3.0,36.204811640215226,138.25291560209442,51.330515600000005,86.7147648,0.0,2.71856952,3.92696056,51.238658799999996,2.0,0.0,1.0,0.0,0.0,362048116.1,1382529164.45,49180.25,86276.25,0.314250009,2.01737984,2.03060009,2.9996,0.84,1.3,102.0,47.9,0.01250000045,-0.004449999780000001,0.0007500004499999997,0.0830500045,0.0,,0.0,3.0,1.0,11.0,36.2048055,138.2529121,0.6834793299999999,0.31391711499999997,0.36833826999999997,-0.015382085,0.016268428,0.0,0.00865160115,-0.00016738447,0.071865032,0.00627467455,-0.031618506,-0.00430735,-0.337511,-0.61048959,0.15150562,-0.26037516,-2.4785668999999997,0.0064747804,51.69883,0.1,0.509702925,0.37546366,0.148735345,0.0809544,inf,inf,inf,inf,1.0,1.0,1.0,1.0,2.0,0.0,2.0,1.0,3.0,1.0,1.0,1.0,benign
259342521,-0.32535131500000003,0.010810246499999999,-0.006396932500000001,0.9455098,0.9999948,-4.610795e-10,1.5842416e-09,0.0032373846,3.0,36.204811640863404,138.25291560170893,51.3303042,86.7127936,0.0,2.71853734,3.92694442,51.2382926,2.0,0.0,1.0,0.0,0.0,362048116.0,1382529164.5,49179.5,86275.5,0.31350001,2.0173799,2.0300001,2.9989999999999997,0.84,1.3,102.0,48.0,0.013000000500000001,-0.005499999800000001,0.0015000005000000002,0.08650000499999999,0.0,,0.0,3.0,1.0,11.0,36.2048055,138.2529121,0.68426996,0.3135764,0.36857298,-0.015382085,0.016268428,0.0,0.009531707,0.00037100416,0.072337344,0.0066039576,-0.031618506,-0.00430735,-0.337511,-0.39548558,0.4631815,-0.22059622,-2.4786625,0.0064747804,51.69883,0.1,0.5128947,0.37560812,0.15073024,0.08118761,inf,inf,inf,inf,1.0,1.0,1.0,1.0,2.0,0.0,2.0,1.0,3.0,1.0,1.0,1.0,benign
259347519,-0.32538128,0.010779047,-0.006418385,0.9454997,0.9999948,-4.610795e-10,1.5842416e-09,0.0032373846,3.0,36.204811641511576,138.25291560132342,51.3300928,86.7108224,0.0,2.71850516,3.9269282800000003,51.2379264,2.0,0.0,1.0,0.0,0.0,362048115.9,1382529164.55,49178.75,86274.75,0.312750011,2.01737996,2.02940011,2.9983999999999997,0.84,1.3,102.0,48.1,0.01350000055,-0.00654999982,0.0022500005500000007,0.0899500055,0.0,,0.0,3.0,1.0,11.0,36.2048055,138.2529121,0.6838630066666667,0.31374589999999997,0.36876878,-0.015382085,0.016268428,0.0,0.008832719,0.00030415471,0.07307852933333334,0.007243248733333333,-0.031618506,-0.00430735,-0.337511,-0.4201460966666667,0.4824701666666667,0.05160354,-2.4786449333333334,0.0064747804,51.69883,0.1,0.5104784,0.37523022666666667,0.14919464999999998,0.08097364333333333,inf,inf,inf,inf,1.0,1.0,1.0,1.0,2.0,0.0,2.0,1.0,3.0,1.0,1.0,1.0,benign
259397510,-0.3254192,0.010782187,-0.006429876,0.94548655,0.9999948,-4.610795e-10,1.5842416e-09,0.0032373846,3.0,36.204811642159754,138.25291560093794,51.3298814,86.7088512,0.0,2.71847298,3.92691214,51.237560200000004,2.0,0.0,1.0,0.0,0.0,362048115.8,1382529164.6,49178.0,86274.0,0.312000012,2.01738002,2.02880012,2.9978,0.84,1.3,102.0,48.2,0.0140000006,-0.007599999840000001,0.0030000006000000003,0.09340000600000001,0.0,,0.0,3.0,1.0,11.0,36.2048055,138.2529121,0.6834560533333333,0.3139154,0.36896458,-0.015382085,0.016268428,0.0,0.008133731,0.00023730526,0.07381971466666666,0.007882539866666666,-0.031618506,-0.00430735,-0.337511,-0.4448066133333333,0.5017588333333334,0.3238033,-2.4786273666666667,0.0064747804,51.69883,0.1,0.5080621000000001,0.37485233333333334,0.14765906,0.08075967666666667,inf,inf,inf,inf,1.0,1.0,1.0,1.0,2.0,0.0,2.0,1.0,3.0,1.0,1.0,1.0,benign
259452501,-0.32535452,0.010744015,-0.006523717,0.94550866,0.9999948,-4.610795e-10,1.5842416e-09,0.0032373846,3.0,36.20481164280793,138.25291560055243,51.32967,86.70688,-0.0,2.7184408,3.926896,51.237194,2.0,0.0,1.0,0.0,0.0,362048115.7,1382529164.65,49177.25,86273.25,0.311250013,2.0173800799999997,2.02820013,2.9972,0.84,1.3,102.0,48.3,0.01450000065,-0.00864999986,0.00375000065,0.0968500065,0.0,,0.0,3.0,1.0,11.0,36.2048055,138.2529121,0.6830491,0.3140849,0.36916038,-0.015382085,0.016268428,0.0,0.007434743,0.00017045581,0.0745609,0.008521831,-0.031618506,-0.00430735,-0.337511,-0.46946713,0.5210475,0.59600306,-2.4786098,0.0064747804,51.69883,0.1,0.5056458,0.37447444,0.14612347,0.08054571,inf,inf,inf,inf,1.0,1.0,1.0,1.0,2.0,0.0,2.0,1.0,3.0,1.0,1.0,1.0,benign
259502492,-0.3254202,0.010769646,-0.006487934,0.9454859,0.9999948,-4.610795e-10,1.5842416e-09,0.0032373846,3.0,36.20481164541093,138.2529155950978,51.329022,86.704494,0.0,2.71842034,3.92692334,51.2358466,2.0,0.0,1.0,0.0,0.0,362048115.6,1382529164.7,49176.5,86272.5,0.310500014,2.0173801399999998,2.02760014,2.9966,0.84,1.3,102.0,48.4,0.0150000007,-0.00969999988,0.004500000700000001,0.100300007,0.0,,0.0,3.0,1.0,11.0,36.2048055,138.2529121,0.6823116499999999,0.31436739,0.36973096,-0.015382085,0.016268428,0.0,0.0070654507999999994,-0.0013292233950000002,0.073155945,0.007298105500000001,-0.031618506,-0.00430735,-0.337511,-0.1904407125,0.14912488000000002,0.24578813300000002,-2.4785109,0.0064747804,51.69883,0.1,0.5088128000000001,0.375704605,0.14811490500000002,0.08087537,inf,inf,inf,inf,1.0,1.0,1.0,1.0,2.0,0.0,2.0,1.0,3.0,1.0,1.0,1.0,benign
259542485,-0.32543332999999997,0.0107799905,-0.00647266865,0.9454814,0.9999948,-4.610795e-10,1.5842416e-09,0.0032373846,3.0,36.20481164801393,138.25291558964318,51.328374000000004,86.702108,0.0,2.71839988,3.92695068,51.2344992,2.0,0.0,1.0,0.0,0.0,362048115.5,1382529164.75,49175.75,86271.75,0.309750015,2.0173802,2.02700015,2.996,0.84,1.3,102.0,48.5,0.01550000075,-0.010749999900000001,0.005250000750000001,0.10375000749999999,0.0,,0.0,3.0,1.0,11.0,36.2048055,138.2529121,0.6815742,0.31464988,0.37030154,-0.015382085,0.016268428,0.0,0.0066961586,-0.0028289026,0.07175099,0.00607438,-0.031618506,-0.00430735,-0.337511,0.088585705,-0.22279774,-0.104426794,-2.478412,0.0064747804,51.69883,0.1,0.5119798,0.37693477,0.15010634,0.08120503,inf,inf,inf,inf,1.0,1.0,1.0,1.0,2.0,0.0,2.0,1.0,3.0,1.0,1.0,1.0,benign
259547484,-0.32544646,0.010790335,-0.0064574033,0.9454769,0.9999948,-4.610795e-10,1.5842416e-09,0.0032373846,3.0,36.204811650616925,138.25291558418854,51.327726,86.69972200000001,0.0,2.71837942,3.92697802,51.2331518,2.0,0.0,1.0,0.0,0.0,362048115.4,1382529164.8,49175.0,86271.0,0.309000016,2.01738026,2.02640016,2.9954,0.84,1.3,102.0,48.6,0.0160000008,-0.011799999920000002,0.0060000008,0.107200008,0.0,,0.0,3.0,1.0,11.0,36.2048055,138.2529121,0.6825482333333334,0.31364586,0.37099994999999997,-0.015382085,0.016268428,0.0,0.007011887633333333,-0.004012562833333334,0.07222114333333333,0.006873706666666667,-0.031618506,-0.00430735,-0.337511,0.07710800833333334,-0.16570218333333334,-0.18991716266666667,-2.4783768333333334,0.0064747804,51.69883,0.1,0.5096854,0.37659135666666665,0.14872357666666666,0.0810113,inf,inf,inf,inf,1.0,1.0,1.0,1.0,2.0,0.0,2.0,1.0,3.0,1.0,1.0,1.0,benign
259602474,-0.3254746,0.010755232,-0.006524924,0.9454672,0.9999948,-4.610795e-10,1.5842416e-09,0.0032373846,3.0,36.20481165321993,138.25291557873393,51.327078,86.697336,0.0,2.71835896,3.92700536,51.2318044,2.0,0.0,1.0,0.0,0.0,362048115.3,1382529164.85,49174.25,86270.25,0.308250017,2.01738032,2.02580017,2.9947999999999997,0.84,1.3,102.0,48.7,0.01650000085,-0.012849999940000002,0.00675000085,0.11065000850000001,0.0,,0.0,3.0,1.0,11.0,36.2048055,138.2529121,0.6835222666666666,0.31264184,0.37169836,-0.015382085,0.016268428,0.0,0.007327616666666667,-0.005196223066666667,0.07269129666666667,0.007673033333333333,-0.031618506,-0.00430735,-0.337511,0.06563031166666666,-0.10860662666666666,-0.27540753133333334,-2.4783416666666667,0.0064747804,51.69883,0.1,0.507391,0.37624794333333333,0.14734081333333335,0.08081757,inf,inf,inf,inf,1.0,1.0,1.0,1.0,2.0,0.0,2.0,1.0,3.0,1.0,1.0,1.0,benign
259652466,-0.32549712,0.010837352,-0.0064273314,0.9454591,0.9999948,-4.610795e-10,1.5842416e-09,0.0032373846,3.0,36.20481165582292,138.2529155732793,51.32643,86.69495,-0.0,2.7183385,3.9270327,51.230457,2.0,0.0,1.0,0.0,0.0,362048115.2,1382529164.9,49173.5,86269.5,0.307500018,2.0173803799999996,2.02520018,2.9941999999999998,0.84,1.3,102.0,48.8,0.0170000009,-0.013899999960000003,0.0075000009,0.114100009,0.0,,0.0,3.0,1.0,11.0,36.2048055,138.2529121,0.6844963,0.31163782,0.37239677,-0.015382085,0.016268428,0.0,0.0076433457,-0.0063798833,0.07316145,0.00847236,-0.031618506,-0.00430735,-0.337511,0.054152615,-0.05151107,-0.3608979,-2.4783065,0.0064747804,51.69883,0.1,0.5050966,0.37590453,0.14595805,0.08062384,inf,inf,inf,inf,1.0,1.0,1.0,1.0,2.0,0.0,2.0,1.0,3.0,1.0,1.0,1.0,benign
259697457,-0.3255185,0.010806384,-0.0063842037,0.9454524,0.9999948,-4.610795e-10,1.5842416e-09,0.0032373846,3.0,36.204811662798555,138.25291556498806,51.325525,86.69263500000001,0.0,2.7183205000000004,3.927020983333333,51.229574166666666,2.0,0.0,1.0,0.0,0.0,362048115.1,1382529164.95,49172.75,86268.75,0.306750019,2.0173804399999997,2.02460019,2.9936,0.84,1.3,102.0,48.9,0.01750000095,-0.014949999980000003,0.008250000950000001,0.1175500095,0.0,,0.0,3.0,1.0,11.0,36.2048055,138.2529121,0.6855363,0.3106072266666667,0.37309673666666665,-0.015382085,0.016268428,0.0,0.0078591518,-0.0072082902,0.07369514666666667,0.009327232333333333,-0.031618506,-0.00430735,-0.337511,-0.04945922333333333,-0.12438231999999999,-0.3538909766666667,-2.4782647,0.0064747804,51.69883,0.1,0.5072029666666666,0.37600212,0.14728944333333333,0.08078109533333333,inf,inf,inf,inf,1.0,1.0,1.0,1.0,2.0,0.0,2.0,1.0,3.0,1.0,1.0,1.0,benign
259726029,-0.3255440766666667,0.010795363833333333,-0.006395875966666667,0.9454436166666667,0.9999948,-4.610795e-10,1.5842416e-09,0.0032373846,3.0,36.204811669774195,138.25291555669682,51.32462,86.69032,0.0,2.7183025,3.9270092666666665,51.22869133333334,2.0,0.0,1.0,0.0,0.0,362048115.0,1382529165.0,49172.0,86268.0,0.30600002,2.0173805,2.0240002,2.993,0.84,1.3,102.0,49.0,0.018000001,-0.016,0.009000001,0.12100001,0.0,,0.0,3.0,1.0,11.0,36.2048055,138.2529121,0.6865762999999999,0.30957663333333335,0.3737967033333333,-0.015382085,0.016268428,0.0,0.0080749579,-0.0080366971,0.07422884333333334,0.010182104666666667,-0.031618506,-0.00430735,-0.337511,-0.15307106166666667,-0.19725357,-0.34688405333333333,-2.4782229,0.0064747804,51.69883,0.1,0.5093093333333334,0.37609971000000003,0.14862083666666667,0.08093835066666667,inf,inf,inf,inf,1.0,1.0,1.0,1.0,2.0,0.0,2.0,1.0,3.0,1.0,1.0,1.0,benign
259742450,-0.3255696533333333,0.010784343666666666,-0.0064075482333333334,0.9454348333333333,0.9999948,-4.610795e-10,1.5842416e-09,0.0032373846,3.0,36.20481167674983,138.2529155484056,51.323715,86.688005,0.0,2.7182845,3.92699755,51.2278085,2.0,0.0,1.0,0.0,0.0,362048115.0,1382529164.88,49170.0,86266.0,0.30688001919999996,2.0173805959999997,2.023400192,2.9924399999999998,0.84,1.3,102.0,48.56,0.019760001080000002,-0.01375999988,0.00676000088,0.1196400098,0.0,,0.0,3.0,1.0,11.0,36.2048055,138.2529121,0.6876163,0.30854604,0.37449667,-0.015382085,0.016268428,0.0,0.008290764,-0.008865104,0.07476254,0.011036977,-0.031618506,-0.00430735,-0.337511,-0.2566829,-0.27012482,-0.33987713,-2.4781811,0.0064747804,51.69883,0.1,0.5114157,0.3761973,0.14995223,0.081095606,inf,inf,inf,inf,1.0,1.0,1.0,1.0,2.0,0.0,2.0,1.0,3.0,1.0,1.0,1.0,benign
259747449,-0.32559523,0.0107733235,-0.0064192205,0.94542605,0.9999948,-4.610795e-10,1.5842416e-09,0.0032373846,3.0,36.20481168372546,138.25291554011437,51.32281,86.68569000000001,0.0,2.7182665000000004,3.926985833333333,51.226925666666666,2.0,0.0,1.0,0.0,0.0,362048115.0,1382529164.76,49168.0,86264.0,0.3077600184,2.0173806919999997,2.0228001840000003,2.99188,0.84,1.3,102.0,48.12,0.021520001160000003,-0.01151999976,0.00452000076,0.1182800096,0.0,,0.0,3.0,1.0,11.0,36.2048055,138.2529121,0.6881276,0.30808878333333334,0.37560747,-0.015382085,0.016268428,0.0,0.008689511666666667,-0.008380227333333334,0.07519205333333333,0.012049351666666666,-0.031618506,-0.00430735,-0.337511,-0.23174864,-0.06553006,-0.34189267,-2.4781590666666666,0.0064747804,51.69883,0.1,0.5091152,0.37585393333333333,0.14856097999999998,0.08090110066666667,inf,inf,inf,inf,1.0,1.0,1.0,1.0,2.0,0.0,2.0,1.0,3.0,1.0,1.0,1.0,benign
259802439,-0.32550332,0.010687332,-0.0064420723,0.94545853,0.9999948,-4.610795e-10,1.5842416e-09,0.0032373846,3.0,36.2048116907011,138.25291553182313,51.321905,86.683375,0.0,2.7182485,3.9269741166666665,51.22604283333334,2.0,0.0,1.0,0.0,0.0,362048115.0,1382529164.64,49166.0,86262.0,0.3086400176,2.0173807879999996,2.022200176,2.99132,0.84,1.3,102.0,47.68,0.02328000124,-0.00927999964,0.00228000064,0.11692000940000001,0.0,,0.0,3.0,1.0,11.0,36.2048055,138.2529121,0.6886389,0.3076315266666667,0.37671826999999997,-0.015382085,0.016268428,0.0,0.009088259333333334,-0.007895350666666667,0.07562156666666667,0.013061726333333334,-0.031618506,-0.00430735,-0.337511,-0.20681438,0.13906469999999999,-0.34390821,-2.4781370333333332,0.0064747804,51.69883,0.1,0.5068147000000001,0.37551056666666666,0.14716973,0.08070659533333333,inf,inf,inf,inf,1.0,1.0,1.0,1.0,2.0,0.0,2.0,1.0,3.0,1.0,1.0,1.0,benign
259852431,-0.32558995,0.010673809,-0.006425948,0.94542897,0.9999948,-4.610795e-10,1.5842416e-09,0.0032373846,3.0,36.20481169767673,138.2529155235319,51.321,86.68106,-0.0,2.7182305,3.9269624,51.22516,2.0,0.0,1.0,0.0,0.0,362048115.0,1382529164.52,49164.0,86260.0,0.30952001679999996,2.0173808839999996,2.021600168,2.99076,0.84,1.3,102.0,47.24,0.02504000132,-0.00703999952,4.000051999999976e-05,0.11556000920000001,0.0,,0.0,3.0,1.0,11.0,36.2048055,138.2529121,0.6891502,0.30717427,0.37782907,-0.015382085,0.016268428,0.0,0.009487007,-0.007410474,0.07605108,0.014074101,-0.031618506,-0.00430735,-0.337511,-0.18188012,0.34365946,-0.34592375,-2.478115,0.0064747804,51.69883,0.1,0.5045142,0.3751672,0.14577848,0.08051209,inf,inf,inf,inf,1.0,1.0,1.0,1.0,2.0,0.0,2.0,1.0,3.0,1.0,1.0,1.0,benign
259897422,-0.32560456,0.01066258,-0.0064020767,0.9454243,0.9999948,-4.610795e-10,1.5842416e-09,0.0032373846,3.0,36.20481170376697,138.2529155209146,51.319767,86.67820400000001,0.0,2.71823284,3.9269529199999997,51.2245616,2.0,0.0,1.0,0.0,0.0,362048115.0,1382529164.4,49162.0,86258.0,0.310400016,2.01738098,2.0210001600000003,2.9901999999999997,0.84,1.3,102.0,46.8,0.026800001400000002,-0.004799999399999999,-0.0021999996000000004,0.114200009,0.0,,0.0,3.0,1.0,11.0,36.2048055,138.2529121,0.6895291750000001,0.306792975,0.37949277000000003,-0.015382085,0.016268428,0.0,0.0103553255,-0.00987643325,0.07783599999999999,0.0166400855,-0.031618506,-0.00430735,-0.337511,-0.0870405663,-0.11832183499999999,0.09260157499999999,-2.4781091,0.0064747804,51.69883,0.1,0.50802565,0.37556849999999997,0.147997215,0.080794675,inf,inf,inf,inf,1.0,1.0,1.0,1.0,2.0,0.0,2.0,1.0,3.0,1.0,1.0,1.0,benign
259952413,-0.32559597,0.010619543,-0.0065005724,0.94542706,0.9999948,-4.610795e-10,1.5842416e-09,0.0032373846,3.0,36.20481170985721,138.25291551829727,51.318534,86.675348,0.0,2.71823518,3.92694344,51.2239632,2.0,0.0,1.0,0.0,0.0,362048115.0,1382529164.28,49160.0,86256.0,0.3112800152,2.017381076,2.020400152,2.98964,0.84,1.3,102.0,46.36,0.02856000148,-0.002559999279999999,-0.004439999720000001,0.1128400088,0.0,,0.0,3.0,1.0,11.0,36.2048055,138.2529121,0.68990815,0.30641168,0.38115647,-0.015382085,0.016268428,0.0,0.011223644,-0.0123423925,0.07962092,0.01920607,-0.031618506,-0.00430735,-0.337511,0.0077989874,-0.58030313,0.5311269,-2.4781032,0.0064747804,51.69883,0.1,0.5115371,0.3759698,0.15021595,0.08107726,inf,inf,inf,inf,1.0,1.0,1.0,1.0,2.0,0.0,2.0,1.0,3.0,1.0,1.0,1.0,benign
260002404,-0.3256399,0.010740934,-0.006372283,0.94541144,0.9999948,-4.610795e-10,1.5842416e-09,0.0032373846,3.0,36.20481171594746,138.25291551567997,51.317301,86.672492,0.0,2.71823752,3.92693396,51.223364800000006,2.0,0.0,1.0,0.0,0.0,362048115.0,1382529164.16,49158.0,86254.0,0.3121600144,2.017381172,2.019800144,2.98908,0.84,1.3,102.0,45.92,0.03032000156,-0.0003199991600000007,-0.006679999839999999,0.1114800086,0.0,,0.0,3.0,1.0,11.0,36.2048055,138.2529121,0.6907841766666667,0.30627448,0.3821023666666667,-0.015382085,0.016268428,0.0,0.012278879333333333,-0.013223112333333334,0.08018696,0.020035753333333333,-0.031618506,-0.00430735,-0.337511,0.20286414160000002,-0.8344254533333333,0.6985689666666667,-2.4780951333333334,0.0064747804,51.69883,0.1,0.5092171799999999,0.37553645333333335,0.14895883333333332,0.08089399,inf,inf,inf,inf,1.0,1.0,1.0,1.0,2.0,0.0,2.0,1.0,3.0,1.0,1.0,1.0,benign
260047396,-0.32565263,0.010621541,-0.006352707,0.94540846,0.9999948,-4.610795e-10,1.5842416e-09,0.0032373846,3.0,36.2048117220377,138.25291551306265,51.316068,86.669636,0.0,2.71823986,3.9269244800000003,51.222766400000005,2.0,0.0,1.0,0.0,0.0,362048115.0,1382529164.04,49156.0,86252.0,0.3130400136,2.017381268,2.0192001360000003,2.98852,0.84,1.3,102.0,45.48,0.03208000164,0.0019200009600000012,-0.008919999960000001,0.11012000840000001,0.0,,0.0,3.0,1.0,11.0,36.2048055,138.2529121,0.6916602033333333,0.30613728,0.3830482633333333,-0.015382085,0.016268428,0.0,0.013334114666666667,-0.014103832166666667,0.08075299999999999,0.020865436666666664,-0.031618506,-0.00430735,-0.337511,0.3979292958,-1.0885477766666667,0.8660110333333333,-2.478087066666667,0.0064747804,51.69883,0.1,0.50689726,0.3751031066666667,0.14770171666666668,0.08071072,inf,inf,inf,inf,1.0,1.0,1.0,1.0,2.0,0.0,2.0,1.0,3.0,1.0,1.0,1.0,benign
260052395,-0.325673685,0.0106779,-0.0063169665,0.9454008300000001,0.9999948,-4.610795e-10,1.5842416e-09,0.0032373846,3.0,36.204811728127936,138.25291551044535,51.314835,86.66678,-0.0,2.7182422,3.926915,51.222168,2.0,0.0,1.0,0.0,0.0,362048115.0,1382529163.92,49154.0,86250.0,0.3139200128,2.017381364,2.018600128,2.98796,0.84,1.3,102.0,45.04,0.03384000172,0.004160001080000003,-0.011160000080000003,0.10876000820000001,0.0,,0.0,3.0,1.0,11.0,36.2048055,138.2529121,0.69253623,0.30600008,0.38399416,-0.015382085,0.016268428,0.0,0.01438935,-0.014984552,0.08131904,0.02169512,-0.031618506,-0.00430735,-0.337511,0.59299445,-1.3426701,1.0334531,-2.478079,0.0064747804,51.69883,0.1,0.50457734,0.37466976,0.1464446,0.08052745,inf,inf,inf,inf,1.0,1.0,1.0,1.0,2.0,0.0,2.0,1.0,3.0,1.0,1.0,1.0,benign
260097387,-0.32569474,0.010734259,-0.006281226,0.9453932,0.9999948,-4.610795e-10,1.5842416e-09,0.0032373846,3.0,36.204811740296925,138.25291550085058,51.313781250000005,86.66366500000001,0.0,2.7181939,3.92693875,51.221450000000004,2.0,0.0,1.0,0.0,0.0,362048115.0,1382529163.8,49152.0,86248.0,0.314800012,2.0173814599999997,2.01800012,2.9874,0.84,1.3,102.0,44.6,0.0356000018,0.006400001200000002,-0.013400000200000001,0.107400008,0.0,,0.0,3.0,1.0,11.0,36.2048055,138.2529121,0.693889065,0.305731115,0.38520939499999995,-0.015382085,0.016268428,0.0,0.01128191125,-0.0097756687,0.0780582,0.018562866249999997,-0.031618506,-0.00430735,-0.337511,0.25857084999999996,0.54780195,0.12879835000000006,-2.47803745,0.0064747804,51.69883,0.1,0.50811595,0.375069765,0.148666135,0.080808287,inf,inf,inf,inf,1.0,1.0,1.0,1.0,2.0,0.0,2.0,1.0,3.0,1.0,1.0,1.0,benign
260152381,-0.32564238,0.01102848,-0.0062393015,0.94540817,0.9999948,-4.610795e-10,1.5842416e-09,0.0032373846,3.0,36.204811752465915,138.2529154912558,51.3127275,86.66055,0.0,2.7181456,3.9269625,51.220732,2.0,0.0,1.0,0.0,0.0,362048115.0,1382529163.68,49150.0,86246.0,0.3156800112,2.0173815559999997,2.0174001120000002,2.98684,0.84,1.3,102.0,44.16,0.03736000188,0.00864000132,-0.01564000032,0.1060400078,0.0,,0.0,3.0,1.0,11.0,36.2048055,138.2529121,0.6952419,0.30546215,0.38642463,-0.015382085,0.016268428,0.0,0.0081744725,-0.0045667854,0.07479736,0.0154306125,-0.031618506,-0.00430735,-0.337511,-0.07585275,2.438274,-0.7758564,-2.4779959,0.0064747804,51.69883,0.1,0.51165456,0.37546977,0.15088767,0.081089124,inf,inf,inf,inf,1.0,1.0,1.0,1.0,2.0,0.0,2.0,1.0,3.0,1.0,1.0,1.0,benign
260202369,-0.3256732,0.010901648,-0.0063680555,0.94539815,0.9999948,-4.610795e-10,1.5842416e-09,0.0032373846,3.0,36.204811764634904,138.25291548166103,51.31167375,86.65743499999999,0.0,2.7180973,3.92698625,51.220014,2.0,0.0,1.0,0.0,0.0,362048115.0,1382529163.56,49148.0,86244.0,0.3165600104,2.0173816519999996,2.016800104,2.98628,0.84,1.3,102.0,43.72,0.03912000196,0.010880001440000002,-0.017880000440000002,0.10468000760000001,0.0,,0.0,3.0,1.0,11.0,36.2048055,138.2529121,0.696595325,0.304009345,0.38731817999999996,-0.015382085,0.016268428,0.0,0.01183626775,-0.011992771199999998,0.07350464,0.014022219749999999,-0.031618506,-0.00430735,-0.337511,-0.0735673075,0.07015159999999998,-0.753265275,-2.4779606,0.0064747804,51.69883,0.1,0.507595215,0.37556795499999995,0.14847289,0.080819532,inf,inf,inf,inf,1.0,1.0,1.0,1.0,2.0,0.0,2.0,1.0,3.0,1.0,1.0,1.0,benign
260242363,-0.32569367,0.010914996,-0.00631422505,0.945391275,0.9999948,-4.610795e-10,1.5842416e-09,0.0032373846,3.0,36.20481177680389,138.25291547206626,51.31062,86.65432,-0.0,2.718049,3.92701,51.219296,2.0,0.0,1.0,0.0,0.0,362048115.0,1382529163.44,49146.0,86242.0,0.3174400096,2.017381748,2.016200096,2.98572,0.84,1.3,102.0,43.28,0.04088000204,0.013120001560000004,-0.020120000560000004,0.10332000740000001,0.0,,0.0,3.0,1.0,11.0,36.2048055,138.2529121,0.69794875,0.30255654,0.38821173,-0.015382085,0.016268428,0.0,0.015498063,-0.019418757,0.07221192,0.012613827,-0.031618506,-0.00430735,-0.337511,-0.071281865,-2.2979708,-0.73067415,-2.4779253,0.0064747804,51.69883,0.1,0.50353587,0.37566614,0.14605811,0.08054994,inf,inf,inf,inf,1.0,1.0,1.0,1.0,2.0,0.0,2.0,1.0,3.0,1.0,1.0,1.0,benign
260247361,-0.32571414,0.010928344,-0.0062603946,0.9453844,0.9999948,-4.610795e-10,1.5842416e-09,0.0032373846,3.0,36.20481178472653,138.25291545818004,51.3095686,86.651642,0.0,2.71804676,3.9269998,51.2179432,2.0,0.0,1.0,0.0,0.0,362048115.0,1382529163.32,49144.0,86240.0,0.3183200088,2.017381844,2.015600088,2.98516,0.84,1.3,102.0,42.84,0.04264000212,0.015360001679999999,-0.02236000068,0.10196000720000001,0.0,,0.0,3.0,1.0,11.0,36.2048055,138.2529121,0.6989704533333333,0.30122353333333335,0.38904716666666667,-0.015382085,0.016268428,0.0,0.014963720333333333,-0.01841238133333333,0.07714587333333334,0.017415967333333334,-0.031618506,-0.00430735,-0.337511,-0.019241840000000003,-0.8571734666666666,-0.8055375,-2.4779084666666664,0.0064747804,51.69883,0.1,0.5061253333333333,0.37610806999999996,0.14768645666666666,0.08076967,inf,inf,inf,inf,1.0,1.0,1.0,1.0,2.0,0.0,2.0,1.0,3.0,1.0,1.0,1.0,benign
260302351,-0.32565996,0.0107607385,-0.0064524114,0.94540375,0.9999948,-4.610795e-10,1.5842416e-09,0.0032373846,3.0,36.20481179264917,138.2529154442938,51.3085172,86.64896399999999,0.0,2.71804452,3.9269896,51.2165904,2.0,0.0,1.0,0.0,0.0,362048115.0,1382529163.2,49142.0,86238.0,0.319200008,2.01738194,2.01500008,2.9846,0.84,1.3,102.0,42.4,0.0444000022,0.0176000018,-0.0246000008,0.100600007,0.0,,0.0,3.0,1.0,11.0,36.2048055,138.2529121,0.6999921566666667,0.29989052666666666,0.3898826033333333,-0.015382085,0.016268428,0.0,0.014429377666666666,-0.017406005666666665,0.08207982666666666,0.022218107666666667,-0.031618506,-0.00430735,-0.337511,0.032798184999999994,0.5836238666666667,-0.88040085,-2.4778916333333334,0.0064747804,51.69883,0.1,0.5087147966666666,0.37655,0.14931480333333333,0.0809894,inf,inf,inf,inf,1.0,1.0,1.0,1.0,2.0,0.0,2.0,1.0,3.0,1.0,1.0,1.0,benign
260352343,-0.32569656,0.011219467,-0.0062729726,0.945387,0.9999948,-4.610795e-10,1.5842416e-09,0.0032373846,3.0,36.2048118005718,138.25291543040757,51.3074658,86.646286,0.0,2.71804228,3.9269794,51.2152376,2.0,0.0,1.0,0.0,0.0,362048115.0,1382529163.08,49140.0,86236.0,0.3200800072,2.017382036,2.014400072,2.98404,0.84,1.3,102.0,41.96,0.04616000228,0.019840001920000003,-0.026840000920000003,0.0992400068,0.0,,0.0,3.0,1.0,11.0,36.2048055,138.2529121,0.70101386,0.29855752,0.39071804,-0.015382085,0.016268428,0.0,0.013895035,-0.01639963,0.08701378,0.027020248,-0.031618506,-0.00430735,-0.337511,0.08483821,2.0244212,-0.9552642,-2.4778748,0.0064747804,51.69883,0.1,0.51130426,0.37699193,0.15094315,0.08120913,inf,inf,inf,inf,1.0,1.0,1.0,1.0,2.0,0.0,2.0,1.0,3.0,1.0,1.0,1.0,benign
260402334,-0.32568297,0.010866203,-0.0063489145,0.94539535,0.9999948,-4.610795e-10,1.5842416e-09,0.0032373846,3.0,36.20481180849443,138.25291541652132,51.3064144,86.643608,0.0,2.71804004,3.9269692000000003,51.2138848,2.0,0.0,1.0,0.0,0.0,362048115.0,1382529162.96,49138.0,86234.0,0.3209600064,2.017382132,2.013800064,2.98348,0.84,1.3,102.0,41.519999999999996,0.047920002360000005,0.022080002040000005,-0.029080001040000004,0.09788000660000001,0.0,,0.0,3.0,1.0,11.0,36.2048055,138.2529121,0.7016837,0.2974422,0.39209205,-0.015382085,0.016268428,0.0,0.017993553500000002,-0.013968968499999998,0.08127717000000001,0.0216065025,-0.031618506,-0.00430735,-0.337511,1.422163505,1.9499373,-1.63017805,-2.4779468,0.0064747804,51.69883,0.1,0.50738978,0.376062515,0.14870818,0.080874063,inf,inf,inf,inf,1.0,1.0,1.0,1.0,2.0,0.0,2.0,1.0,3.0,1.0,1.0,1.0,benign
260442327,-0.32571921000000004,0.011000312,-0.006354332250000001,0.945381225,0.9999948,-4.610795e-10,1.5842416e-09,0.0032373846,3.0,36.20481181641707,138.2529154026351,51.305363,86.64093,-0.0,2.7180378,3.926959,51.212532,2.0,0.0,1.0,0.0,0.0,362048115.0,1382529162.84,49136.0,86232.0,0.32184000560000003,2.0173822279999998,2.013200056,2.98292,0.84,1.3,102.0,41.08,0.04968000244,0.024320002160000007,-0.031320001160000006,0.09652000640000001,0.0,,0.0,3.0,1.0,11.0,36.2048055,138.2529121,0.70235354,0.29632688,0.39346606,-0.015382085,0.016268428,0.0,0.022092072,-0.011538307,0.07554056,0.016192757,-0.031618506,-0.00430735,-0.337511,2.7594888,1.8754534,-2.3050919,-2.4780188,0.0064747804,51.69883,0.1,0.5034753,0.3751331,0.14647321,0.080538996,inf,inf,inf,inf,1.0,1.0,1.0,1.0,2.0,0.0,2.0,1.0,3.0,1.0,1.0,1.0,benign
260447326,-0.32575545,0.011134421,-0.00635975,0.9453671,0.9999948,-4.610795e-10,1.5842416e-09,0.0032373846,3.0,36.204811817910795,138.2529153951444,51.3042338,86.638184,0.0,2.71804372,3.9269552400000003,51.211816400000004,2.0,0.0,1.0,0.0,0.0,362048115.0,1382529162.72,49134.0,86230.0,0.3227200048,2.0173823239999997,2.012600048,2.98236,0.84,1.3,102.0,40.64,0.05144000252,0.02656000228,-0.03356000128,0.09516000620000001,0.0,,0.0,3.0,1.0,11.0,36.2048055,138.2529121,0.7027992266666667,0.29548262000000003,0.39443034,-0.015382085,0.016268428,0.0,0.018087470333333334,-0.016111754666666665,0.07651115,0.017289334666666666,-0.031618506,-0.00430735,-0.337511,1.1071771,0.36528336666666683,-0.8647877666666668,-2.478029266666667,0.0064747804,51.69883,0.1,0.5060787133333333,0.37557365666666664,0.14811604333333334,0.08075809733333333,inf,inf,inf,inf,1.0,1.0,1.0,1.0,2.0,0.0,2.0,1.0,3.0,1.0,1.0,1.0,benign
260502317,-0.32575122,0.011339403,-0.006394262,0.9453659,0.9999948,-4.610795e-10,1.5842416e-09,0.0032373846,3.0,36.20481181940451,138.25291538765376,51.3031046,86.635438,0.0,2.71804964,3.92695148,51.211100800000004,2.0,0.0,1.0,0.0,0.0,362048115.0,1382529162.6,49132.0,86228.0,0.323600004,2.0173824199999997,2.0120000399999998,2.9818000000000002,0.84,1.3,102.0,40.2,0.053200002600000004,0.028800002400000003,-0.0358000014,0.093800006,0.0,,0.0,3.0,1.0,11.0,36.2048055,138.2529121,0.7032449133333334,0.29463836,0.39539462000000003,-0.015382085,0.016268428,0.0,0.014082868666666666,-0.020685202333333333,0.07748174000000001,0.018385912333333334,-0.031618506,-0.00430735,-0.337511,-0.5451346000000004,-1.1448866666666664,0.5755163666666663,-2.4780397333333335,0.0064747804,51.69883,0.1,0.5086821266666667,0.37601421333333335,0.14975887666666665,0.08097719866666667,inf,inf,inf,inf,1.0,1.0,1.0,1.0,2.0,0.0,2.0,1.0,3.0,1.0,1.0,1.0,benign
260552351,-0.32560927,0.011416682,-0.006472764,0.94541335,0.9999948,-4.610795e-10,1.5842416e-09,0.0032373846,3.0,36.204811820898236,138.25291538016307,51.3019754,86.632692,0.0,2.71805556,3.9269477200000003,51.2103852,2.0,0.0,1.0,0.0,0.0,362048115.0,1382529162.48,49130.0,86226.0,0.32448000320000003,2.017382516,2.011400032,2.98124,0.84,1.3,102.0,39.76,0.05496000268,0.031040002520000005,-0.038040001520000005,0.0924400058,0.0,,0.0,3.0,1.0,11.0,36.2048055,138.2529121,0.7036906,0.2937941,0.3963589,-0.015382085,0.016268428,0.0,0.010078267,-0.02525865,0.07845233,0.01948249,-0.031618506,-0.00430735,-0.337511,-2.1974463,-2.6550567,2.0158205,-2.4780502,0.0064747804,51.69883,0.1,0.51128554,0.37645477,0.15140171,0.0811963,inf,inf,inf,inf,1.0,1.0,1.0,1.0,2.0,0.0,2.0,1.0,3.0,1.0,1.0,1.0,benign
260597319,-0.32577094,0.011970835,-0.006354544,0.9453516,0.9999948,-4.610795e-10,1.5842416e-09,0.0032373846,3.0,36.20481182239195,138.25291537267242,51.3008462,86.629946,0.0,2.71806148,3.92694396,51.2096696,2.0,0.0,1.0,0.0,0.0,362048115.0,1382529162.36,49128.0,86224.0,0.3253600024,2.017382612,2.010800024,2.98068,0.84,1.3,102.0,39.32,0.05672000276,0.03328000264,-0.04028000164,0.09108000560000001,0.0,,0.0,3.0,1.0,11.0,36.2048055,138.2529121,0.7034373,0.29338025,0.397735175,-0.015382085,0.016268428,0.0,0.0131541365,-0.022591688999999998,0.08344805,0.024445829000000002,-0.031618506,-0.00430735,-0.337511,0.08527334999999958,-2.15216505,0.28479524999999994,-2.4781606,0.0064747804,51.69883,0.1,0.5074603200000001,0.375695495,0.14993473000000002,0.08086419,inf,inf,inf,inf,1.0,1.0,1.0,1.0,2.0,0.0,2.0,1.0,3.0,1.0,1.0,1.0,benign
260652291,-0.32548574,0.012369253,-0.007046479,0.9454399,0.9999948,-4.610795e-10,1.5842416e-09,0.0032373846,3.0,36.20481182388568,138.25291536518174,51.299717,86.6272,-0.0,2.7180674,3.9269402,51.208954,2.0,0.0,1.0,0.0,0.0,362048115.0,1382529162.24,49126.0,86222.0,0.3262400016,2.017382708,2.0102000159999998,2.98012,0.84,1.3,102.0,38.88,0.05848000284,0.03552000276,-0.04252000176,0.0897200054,0.0,,0.0,3.0,1.0,11.0,36.2048055,138.2529121,0.703184,0.2929664,0.39911145,-0.015382085,0.016268428,0.0,0.016230006,-0.019924728,0.08844377,0.029409168,-0.031618506,-0.00430735,-0.337511,2.367993,-1.6492734,-1.44623,-2.478271,0.0064747804,51.69883,0.1,0.5036351,0.37493622,0.14846775,0.08053208,inf,inf,inf,inf,1.0,1.0,1.0,1.0,2.0,0.0,2.0,1.0,3.0,1.0,1.0,1.0,benign
260702281,-0.32554355,0.012659051,-0.007590033,0.9454119,0.9999948,-4.610795e-10,1.5842416e-09,0.0032373846,3.0,36.20481182534391,138.25291536175072,51.298848,86.6247032,0.0,2.71807556,3.9269320000000003,51.2077232,2.0,0.0,1.0,0.0,0.0,362048115.0,1382529162.12,49124.0,86220.0,0.32712000080000003,2.017382804,2.009600008,2.97956,0.84,1.3,102.0,38.44,0.06024000292,0.037760002880000004,-0.044760001880000004,0.08836000520000001,0.0,,0.0,3.0,1.0,11.0,36.2048055,138.2529121,0.7029954666666667,0.2928474466666667,0.3999199333333333,-0.015382085,0.016268428,0.0,0.015868008333333336,-0.012881939199999998,0.0824608,0.023468773,-0.031618506,-0.00430735,-0.337511,2.0784043999999997,-0.40682166666666664,-1.3778346666666665,-2.4780492,0.0064747804,51.69883,0.1,0.5060081666666667,0.37520405333333334,0.15213292333333334,0.08072066333333333,inf,inf,inf,inf,1.0,1.0,1.0,1.0,2.0,0.0,2.0,1.0,3.0,1.0,1.0,1.0,benign
260725131,-0.325660705,0.0129237645,-0.007873094,0.94536555,0.9999948,-4.610795e-10,1.5842416e-09,0.0032373846,3.0,36.20481182680215,138.25291535831968,51.297979,86.6222064,0.0,2.71808372,3.9269238,51.2064924,2.0,0.0,1.0,0.0,0.0,362048115.0,1382529162.0,49122.0,86218.0,0.328,2.0173829,2.009,2.979,0.84,1.3,102.0,38.0,0.062000003,0.040000003,-0.047000002,0.087000005,0.0,,0.0,3.0,1.0,11.0,36.2048055,138.2529121,0.7028069333333333,0.29272849333333334,0.40072841666666664,-0.015382085,0.016268428,0.0,0.015506010666666667,-0.005839150399999998,0.07647783000000001,0.017528377999999997,-0.031618506,-0.00430735,-0.337511,1.7888158,0.8356300666666667,-1.3094393333333334,-2.4778274,0.0064747804,51.69883,0.1,0.5083812333333333,0.37547188666666664,0.15579809666666666,0.08090924666666667,inf,inf,inf,inf,1.0,1.0,1.0,1.0,2.0,0.0,2.0,1.0,3.0,1.0,1.0,1.0,benign
260752273,-0.32577786,0.013188478,-0.008156155,0.9453192,0.9999948,-4.610795e-10,1.5842416e-09,0.0032373846,3.0,36.20481182826038,138.25291535488867,51.29711,86.61970960000001,0.0,2.71809188,3.9269156,51.2052616,2.0,0.0,1.0,0.0,0.0,362048114.7083333,1382529162.1666667,49125.666666666664,86221.66666666667,0.33225,2.0173830083333333,2.008541670833333,2.978625,0.84,1.3,102.0,37.875,0.07033333704166667,0.028583335791666664,-0.040166668333333336,0.08033333770833334,0.0,,0.0,3.0,1.0,11.0,36.2048055,138.2529121,0.7026184,0.29260954,0.4015369,-0.015382085,0.016268428,0.0,0.015144013,0.0012036384,0.07049486,0.011587983,-0.031618506,-0.00430735,-0.337511,1.4992272,2.0780818,-1.241044,-2.4776056,0.0064747804,51.69883,0.1,0.5107543,0.37573972,0.15946327,0.08109783,inf,inf,inf,inf,1.0,1.0,1.0,1.0,2.0,0.0,2.0,1.0,3.0,1.0,1.0,1.0,benign
260797265,-0.32596606,0.013781264,-0.009582651,0.94523245,0.9999948,-4.610795e-10,1.5842416e-09,0.0032373846,3.0,36.20481182971862,138.25291535145763,51.296241,86.6172128,0.0,2.71810004,3.9269073999999997,51.204030800000005,2.0,0.0,1.0,0.0,0.0,362048114.4166667,1382529162.3333333,49129.333333333336,86225.33333333333,0.3365,2.0173831166666667,2.0080833416666666,2.97825,0.84,1.3,102.0,37.75,0.07866667108333333,0.017166668583333333,-0.033333334666666666,0.07366667041666668,0.0,,0.0,3.0,1.0,11.0,36.2048055,138.2529121,0.703306575,0.292018355,0.40249669,-0.015382085,0.016268428,0.0,0.0026809499999999997,-0.00021613035000000004,0.069464375,0.010610127,-0.031618506,-0.00430735,-0.337511,-0.7418528000000002,1.74238225,-1.1642274000000001,-2.4764017000000003,0.0064747804,51.69883,0.1,0.507304615,0.37512261999999996,0.161909475,0.080840828,inf,inf,inf,inf,1.0,1.0,1.0,1.0,2.0,0.0,2.0,1.0,3.0,1.0,1.0,1.0,benign
260852255,-0.32683837,0.015606586,-0.0115577765,0.94488066,0.9999948,-4.610795e-10,1.5842416e-09,0.0032373846,3.0,36.204811831176855,138.25291534802662,51.295372,86.614716,-0.0,2.7181082,3.9268992,51.2028,2.0,0.0,1.0,0.0,0.0,362048114.125,1382529162.5,49133.0,86229.0,0.34075,2.0173832249999997,2.0076250125,2.977875,0.84,1.3,102.0,37.625,0.087000005125,0.005750001375000001,-0.026500001,0.06700000312500001,0.0,,0.0,3.0,1.0,11.0,36.2048055,138.2529121,0.70399475,0.29142717,0.40345648,-0.015382085,0.016268428,0.0,-0.009782113,-0.0016358991,0.06843389,0.009632271,-0.031618506,-0.00430735,-0.337511,-2.9829328,1.4066827,-1.0874108,-2.4751978,0.0064747804,51.69883,0.1,0.50385493,0.37450552,0.16435568,0.080583826,inf,inf,inf,inf,1.0,1.0,1.0,1.0,2.0,0.0,2.0,1.0,3.0,1.0,1.0,1.0,benign
260902248,-0.32801312,0.018289082,-0.014458377,0.9443854,0.9999948,-4.610795e-10,1.5842416e-09,0.0032373846,3.0,36.20481182359536,138.25291534855933,51.2957296,86.6134678,0.0,2.71813442,3.92693556,51.202766600000004,2.0,0.0,1.0,0.0,0.0,362048113.8333333,1382529162.6666667,49136.666666666664,86232.66666666667,0.34500000000000003,2.017383333333333,2.0071666833333333,2.9775,0.84,1.3,102.0,37.5,0.09533333916666667,-0.005666665833333334,-0.019666667333333332,0.060333335833333335,0.0,,0.0,3.0,1.0,11.0,36.2048055,138.2529121,0.70386371,0.29106331,0.40357262,-0.015382085,0.016268428,0.0,-0.0141431705,0.0026414327999999994,0.060994035,0.0018873241499999995,-0.031618506,-0.00430735,-0.337511,-0.42252730000000005,1.73796105,-2.0001982,-2.4721786000000003,0.0064747804,51.69883,0.1,0.5071044650000001,0.37573543,0.17232583499999998,0.0809177905,inf,inf,inf,inf,1.0,1.0,1.0,1.0,2.0,0.0,2.0,1.0,3.0,1.0,1.0,1.0,benign
260942239,-0.32878503000000003,0.0197580805,-0.015128969999999999,0.9440751350000001,0.9999948,-4.610795e-10,1.5842416e-09,0.0032373846,3.0,36.20481181601386,138.25291534909204,51.2960872,86.6122196,0.0,2.7181606400000002,3.9269719199999997,51.202733200000004,2.0,0.0,1.0,0.0,0.0,362048113.5416667,1382529162.8333333,49140.333333333336,86236.33333333333,0.34925,2.0173834416666665,2.0067083541666664,2.977125,0.84,1.3,102.0,37.375,0.10366667320833334,-0.01708333304166667,-0.012833333666666669,0.05366666854166667,0.0,,0.0,3.0,1.0,11.0,36.2048055,138.2529121,0.70373267,0.29069945,0.40368876,-0.015382085,0.016268428,0.0,-0.018504228,0.0069187647,0.05355418,-0.0058576227,-0.031618506,-0.00430735,-0.337511,2.1378782,2.0692394,-2.9129856,-2.4691594,0.0064747804,51.69883,0.1,0.510354,0.37696534,0.18029599,0.081251755,inf,inf,inf,inf,1.0,1.0,1.0,1.0,2.0,0.0,2.0,1.0,3.0,1.0,1.0,1.0,benign
260947239,-0.32955694,0.021227079,-0.015799563,0.94376487,0.9999948,-4.610795e-10,1.5842416e-09,0.0032373846,3.0,36.20481180843235,138.25291534962474,51.296444799999996,86.6109714,0.0,2.71818686,3.92700828,51.2026998,2.0,0.0,1.0,0.0,0.0,362048113.25,1382529163.0,49144.0,86240.0,0.35350000000000004,2.01738355,2.006250025,2.97675,0.84,1.3,102.0,37.25,0.11200000724999999,-0.028500000249999997,-0.005999999999999998,0.047000001250000006,0.0,,0.0,3.0,1.0,11.0,36.2048055,138.2529121,0.7024149799999999,0.29102168333333334,0.40301535666666666,-0.015382085,0.016268428,0.0,-0.039915146666666665,0.01651811646666667,0.037741002999999995,-0.021934728466666664,-0.031618506,-0.00430735,-0.337511,1.0461969666666666,3.0590993666666666,-2.704344733333333,-2.464319166666667,0.0064747804,51.69883,0.1,0.5084233666666667,0.37677988,0.18303485333333333,0.08114345833333333,inf,inf,inf,inf,1.0,1.0,1.0,1.0,2.0,0.0,2.0,1.0,3.0,1.0,1.0,1.0,benign
261002231,-0.3326631,0.025982033,-0.017919764,0.94251746,0.9999948,-4.610795e-10,1.5842416e-09,0.0032373846,3.0,36.204811800850855,138.25291535015745,51.2968024,86.6097232,0.0,2.71821308,3.9270446399999996,51.2026664,2.0,0.0,1.0,0.0,0.0,362048112.9583333,1382529163.1666667,49147.666666666664,86243.66666666667,0.35775,2.0173836583333333,2.0057916958333335,2.976375,0.84,1.3,102.0,37.125,0.12033334129166666,-0.03991666745833334,0.0008333336666666719,0.040333333958333335,0.0,,0.0,3.0,1.0,11.0,36.2048055,138.2529121,0.70109729,0.2913439166666667,0.40234195333333334,-0.015382085,0.016268428,0.0,-0.06132606533333333,0.026117468233333337,0.021927825999999997,-0.03801183423333333,-0.031618506,-0.00430735,-0.337511,-0.045484266666666606,4.048959333333333,-2.4957038666666667,-2.459478933333333,0.0064747804,51.69883,0.1,0.5064927333333333,0.37659442,0.18577371666666667,0.08103516166666666,inf,inf,inf,inf,1.0,1.0,1.0,1.0,2.0,0.0,2.0,1.0,3.0,1.0,1.0,1.0,benign
261052220,-0.33610004,0.0267809,-0.019295543,0.9412477,0.9999948,-4.610795e-10,1.5842416e-09,0.0032373846,3.0,36.20481179326936,138.25291535069016,51.29716,86.608475,-0.0,2.7182393,3.927081,51.202633,2.0,0.0,1.0,0.0,0.0,362048112.6666667,1382529163.3333333,49151.333333333336,86247.33333333333,0.362,2.0173837666666667,2.0053333666666666,2.976,0.84,1.3,102.0,37.0,0.1286666753333333,-0.05133333466666667,0.007666667333333335,0.03366666666666667,0.0,,0.0,3.0,1.0,11.0,36.2048055,138.2529121,0.6997796,0.29166615,0.40166855,-0.015382085,0.016268428,0.0,-0.082736984,0.03571682,0.006114649,-0.05408894,-0.031618506,-0.00430735,-0.337511,-1.1371655,5.0388193,-2.287063,-2.4546387,0.0064747804,51.69883,0.1,0.5045621,0.37640896,0.18851258,0.080926865,inf,inf,inf,inf,1.0,1.0,1.0,1.0,2.0,0.0,2.0,1.0,3.0,1.0,1.0,1.0,benign
261102215,-0.34000957,0.027892046,-0.018391853,0.9398284,0.9999948,-4.610795e-10,1.5842416e-09,0.0032373846,3.0,36.204811756444336,138.2529153571382,51.304736,86.614408,0.0,2.71825994,3.92707492,51.202439999999996,2.0,0.0,1.0,0.0,0.0,362048112.375,1382529163.5,49155.0,86251.0,0.36625,2.017383875,2.0048750374999997,2.975625,0.84,1.3,102.0,36.875,0.137000009375,-0.06275000187499999,0.014500000999999998,0.026999999375000007,0.0,,0.0,3.0,1.0,11.0,36.2048055,138.2529121,0.6958612,0.292295815,0.39655157500000005,-0.015382085,0.016268428,0.0,-0.106689537,0.024980278,-0.0605347505,-0.12089637,-0.031618506,-0.00430735,-0.337511,-2.21547985,1.2705019499999999,-2.6247539,-2.44708345,0.0064747804,51.69883,0.102864075,0.507935025,0.37656067000000004,0.19791297000000002,0.08117519749999999,inf,inf,inf,inf,1.0,1.0,1.0,1.0,2.0,0.0,2.0,1.0,3.0,1.0,1.0,1.0,benign
261142204,-0.341819335,0.026549738,-0.017753048,0.93921975,0.9999948,-4.610795e-10,1.5842416e-09,0.0032373846,3.0,36.204811719619315,138.25291536358625,51.312312,86.620341,0.0,2.71828058,3.92706884,51.202247,2.0,0.0,1.0,0.0,0.0,362048112.0833333,1382529163.6666667,49158.666666666664,86254.66666666667,0.3705,2.017383983333333,2.0044167083333333,2.97525,0.84,1.3,102.0,36.75,0.14533334341666665,-0.07416666908333333,0.021333334666666662,0.020333332083333336,0.0,,0.0,3.0,1.0,11.0,36.2048055,138.2529121,0.6919428,0.29292548,0.3914346,-0.015382085,0.016268428,0.0,-0.13064209,0.014243736,-0.12718415,-0.1877038,-0.031618506,-0.00430735,-0.337511,-3.2937942,-2.4978154,-2.9624448,-2.4395282,0.0064747804,51.69883,0.10572815,0.51130795,0.37671238,0.20731336,0.08142353,inf,inf,inf,inf,1.0,1.0,1.0,1.0,2.0,0.0,2.0,1.0,3.0,1.0,1.0,1.0,benign
261147203,-0.3436291,0.02520743,-0.017114243,0.9386111,0.9999948,-4.610795e-10,1.5842416e-09,0.0032373846,3.0,36.20481168279429,138.2529153700343,51.319888,86.62627400000001,0.0,2.71830122,3.9270627599999997,51.202054,2.0,0.0,1.0,0.0,0.0,362048111.7916667,1382529163.8333333,49162.333333333336,86258.33333333333,0.37475,2.0173840916666665,2.003958379166667,2.974875,0.84,1.3,102.0,36.625,0.15366667745833335,-0.08558333629166667,0.02816666833333334,0.013666664791666672,0.0,,0.0,3.0,1.0,11.0,36.2048055,138.2529121,0.6877304833333333,0.2934699466666667,0.38221903333333335,-0.015382085,0.016268428,0.0,-0.14928055999999998,0.024593545333333335,-0.16538924333333332,-0.22595259333333334,-0.031618506,-0.00430735,-0.337511,-4.1876009666666665,1.6178534,-1.6500275333333334,-2.4336466666666667,0.0064747804,51.69883,0.11494372333333334,0.5092445999999999,0.3765048966666667,0.20862363333333334,0.08131608466666666,inf,inf,inf,inf,1.0,1.0,1.0,1.0,2.0,0.0,2.0,1.0,3.0,1.0,1.0,1.0,benign
261202194,-0.34804824,0.022485582,-0.015324471,0.9370817,0.9999948,-4.610795e-10,1.5842416e-09,0.0032373846,3.0,36.20481164596927,138.25291537648235,51.327464,86.63220700000001,0.0,2.71832186,3.9270566799999997,51.201861,2.0,0.0,1.0,0.0,0.0,362048111.5,1382529164.0,49166.0,86262.0,0.379,2.0173842,2.00350005,2.9745,0.84,1.3,102.0,36.5,0.16200001149999999,-0.09700000349999999,0.035000002,0.0069999975000000075,0.0,,0.0,3.0,1.0,11.0,36.2048055,138.2529121,0.6835181666666666,0.29401441333333334,0.37300346666666667,-0.015382085,0.016268428,0.0,-0.16791903,0.03494335466666666,-0.20359433666666665,-0.2642013866666667,-0.031618506,-0.00430735,-0.337511,-5.081407733333333,5.7335221999999995,-0.3376102666666667,-2.427765133333333,0.0064747804,51.69883,0.12415929666666667,0.50718125,0.37629741333333333,0.20993390666666667,0.08120863933333333,inf,inf,inf,inf,1.0,1.0,1.0,1.0,2.0,0.0,2.0,1.0,3.0,1.0,1.0,1.0,benign
261252193,-0.3517252,0.020904938,-0.015953178,0.9357339,0.9999948,-4.610795e-10,1.5842416e-09,0.0032373846,3.0,36.20481160914425,138.25291538293038,51.33504,86.63814,-0.0,2.7183425,3.9270506,51.201668,2.0,0.0,1.0,0.0,0.0,362048111.2083333,1382529164.1666667,49169.666666666664,86265.66666666667,0.38325,2.0173843083333334,2.003041720833333,2.9741250000000004,0.84,1.3,102.0,36.375,0.17033334554166665,-0.10841667070833333,0.041833335666666666,0.00033333020833334337,0.0,,0.0,3.0,1.0,11.0,36.2048055,138.2529121,0.67930585,0.29455888,0.3637879,-0.015382085,0.016268428,0.0,-0.1865575,0.045293164,-0.24179943,-0.30245018,-0.031618506,-0.00430735,-0.337511,-5.9752145,9.849191,0.974807,-2.4218836,0.0064747804,51.69883,0.13337487,0.5051179,0.37608993,0.21124418,0.081101194,inf,inf,inf,inf,1.0,1.0,1.0,1.0,2.0,0.0,2.0,1.0,3.0,1.0,1.0,1.0,benign
261297177,-0.3549287,0.019646728,-0.014534742,0.9345739,0.9999948,-4.610795e-10,1.5842416e-09,0.0032373846,3.0,36.20481155158066,138.2529153835443,51.35109925,86.6520175,0.0,2.718328675,3.927037,51.201668,2.0,0.0,1.0,0.0,0.0,362048110.9166667,1382529164.3333333,49173.333333333336,86269.33333333333,0.3875,2.017384416666667,2.0025833916666667,2.9737500000000003,0.84,1.3,102.0,36.25,0.17866667958333332,-0.11983333791666667,0.04866666933333334,-0.006333337083333335,0.0,,0.0,3.0,1.0,11.0,36.2048055,138.2529121,0.67176491,0.29530163,0.3465266,-0.015382085,0.016268428,0.0,-0.18937185,0.037139397,-0.261560955,-0.3226372,-0.031618506,-0.00430735,-0.337511,-0.5871425000000006,4.22963425,1.9650458999999998,-2.41516175,0.0064747804,51.69883,0.150636165,0.50904985,0.376501715,0.222232215,0.08142116199999999,inf,inf,inf,inf,1.0,1.0,1.0,1.0,2.0,0.0,2.0,1.0,3.0,1.0,1.0,1.0,benign
261352167,-0.3581785,0.016365169,-0.0112881055,0.93344146,0.9999948,-4.610795e-10,1.5842416e-09,0.0032373846,3.0,36.20481149401708,138.2529153841582,51.3671585,86.665895,0.0,2.7183148499999996,3.9270234,51.201668,2.0,0.0,1.0,0.0,0.0,362048110.625,1382529164.5,49177.0,86273.0,0.39175,2.0173845249999998,2.0021250625,2.9733750000000003,0.84,1.3,102.0,36.125,0.187000013625,-0.13125000512499999,0.055500003000000006,-0.013000004374999999,0.0,,0.0,3.0,1.0,11.0,36.2048055,138.2529121,0.66422397,0.29604438,0.3292653,-0.015382085,0.016268428,0.0,-0.1921862,0.02898563,-0.28132248,-0.34282422,-0.031618506,-0.00430735,-0.337511,4.8009295,-1.3899225,2.9552848,-2.4084399,0.0064747804,51.69883,0.16789746,0.5129818,0.3769135,0.23322025,0.08174113,inf,inf,inf,inf,1.0,1.0,1.0,1.0,2.0,0.0,2.0,1.0,3.0,1.0,1.0,1.0,benign
261402159,-0.36108646,0.012151347,-0.011093026,0.93238723,0.9999948,-4.610795e-10,1.5842416e-09,0.0032373846,3.0,36.20481143645349,138.25291538477208,51.38321775,86.67977250000001,0.0,2.7183010249999997,3.9270098,51.201668,2.0,0.0,1.0,0.0,0.0,362048110.3333333,1382529164.6666667,49180.666666666664,86276.66666666667,0.396,2.017384633333333,2.0016667333333333,2.9730000000000003,0.84,1.3,102.0,36.0,0.19533334766666666,-0.14266667233333333,0.06233333666666667,-0.019666671666666663,0.0,,0.0,3.0,1.0,11.0,36.2048055,138.2529121,0.658963355,0.29541179,0.3144087,-0.015382085,0.016268428,0.0,-0.19037797,0.0186060085,-0.29117094,-0.34996178499999997,-0.031618506,-0.00430735,-0.337511,5.67968845,-2.0564762500000002,-1.1582693000000002,-2.40314985,0.0064747804,51.69883,0.182754055,0.50890095,0.37621775,0.229141215,0.08144768499999999,inf,inf,inf,inf,1.0,1.0,1.0,1.0,2.0,0.0,2.0,1.0,3.0,1.0,1.0,1.0,benign
261452150,-0.3632766,0.008395177,-0.009717812,0.9315929,0.9999948,-4.610795e-10,1.5842416e-09,0.0032373846,3.0,36.2048113788899,138.252915385386,51.399277,86.69365,-0.0,2.7182872,3.9269962,51.201668,2.0,0.0,1.0,0.0,0.0,362048110.0416667,1382529164.8333333,49184.333333333336,86280.33333333333,0.40025,2.0173847416666666,2.0012084041666665,2.9726250000000003,0.84,1.3,102.0,35.875,0.20366668170833332,-0.15408333954166667,0.06916667033333333,-0.026333338958333327,0.0,,0.0,3.0,1.0,11.0,36.2048055,138.2529121,0.65370274,0.2947792,0.2995521,-0.015382085,0.016268428,0.0,-0.18856974,0.008226387,-0.3010194,-0.35709935,-0.031618506,-0.00430735,-0.337511,6.5584474,-2.72303,-5.2718234,-2.3978598,0.0064747804,51.69883,0.19761065,0.5048201,0.375522,0.22506218,0.08115424,inf,inf,inf,inf,1.0,1.0,1.0,1.0,2.0,0.0,2.0,1.0,3.0,1.0,1.0,1.0,benign
261497144,-0.36508024,0.0063946587,-0.008507946,0.93091524,0.9999948,-4.610795e-10,1.5842416e-09,0.0032373846,3.0,36.204811347303625,138.25291536733846,51.414139,86.706345,0.0,2.7182608,3.927025225,51.201668,2.0,0.0,1.0,0.0,0.0,362048109.75,1382529165.0,49188.0,86284.0,0.40449999999999997,2.01738485,2.000750075,2.9722500000000003,0.84,1.3,102.0,35.75,0.21200001575,-0.16550000674999998,0.076000004,-0.03300000624999999,0.0,,0.0,3.0,1.0,11.0,36.2048055,138.2529121,0.649013255,0.29372404,0.28372683499999996,-0.015382085,0.016268428,0.0,-0.191626765,0.009698103999999999,-0.315749275,-0.36962074,-0.031618506,-0.00430735,-0.337511,3.8077180000000004,-1.32519761,-3.8762003,-2.3936083999999997,0.0064747804,51.69883,0.21343592,0.5088021,0.375931465,0.235419765,0.0814583475,inf,inf,inf,inf,1.0,1.0,1.0,1.0,2.0,0.0,2.0,1.0,3.0,1.0,1.0,1.0,benign
